[
  {
    "name": "Såtenäs",
    "ICAO": "ESIB",
    "longitude": 12.7133,
    "latitude": 58.4265
  },
  {
    "name": "Malmen",
    "ICAO": "ESCF",
    "longitude": 15.5257,
    "latitude": 58.4023
  },
  {
    "name": "Kallax",
    "ICAO": "ESPA",
    "longitude": 22.1210,
    "latitude": 65.5438
  },
  {
    "name": "Kallinge",
    "ICAO": "ESDF",
    "longitude": 15.2653,
    "latitude": 56.2667
  },
  {
    "name": "Vidsel",
    "ICAO": "ESPE",
    "longitude": 20.1472,
    "latitude": 65.8753
  }
]